[
  {
    "from": {
      "icao": "KMCO",
      "lat": 28.4312,
      "lon": -81.3081,
      "name": "Orlando"
    },
    "to": {
      "icao": "KSLC",
      "lat": 40.7884,
      "lon": -111.977,
      "name": "Salt Lake City Intl"
    },
    "count": 4
  },
  {
    "from": {
      "icao": "KDTW",
      "lat": 42.2162,
      "lon": -83.3554,
      "name": "Detroit Metro"
    },
    "to": {
      "icao": "KORD",
      "lat": 41.9742,
      "lon": -87.9073,
      "name": "Chicago O'Hare"
    },
    "count": 3
  },
  {
    "from": {
      "icao": "KDTW",
      "lat": 42.2162,
      "lon": -83.3554,
      "name": "Detroit Metro"
    },
    "to": {
      "icao": "KMSP",
      "lat": 44.882,
      "lon": -93.2218,
      "name": "Minneapolis/St Paul"
    },
    "count": 4
  },
  {
    "from": {
      "icao": "KDEN",
      "lat": 39.8561,
      "lon": -104.6737,
      "name": "Denver"
    },
    "to": {
      "icao": "KDFW",
      "lat": 32.8998,
      "lon": -97.0403,
      "name": "Dallas/Fort Worth"
    },
    "count": 3
  },
  {
    "from": {
      "icao": "KLAX",
      "lat": 33.9416,
      "lon": -118.4085,
      "name": "Los Angeles"
    },
    "to": {
      "icao": "KSLC",
      "lat": 40.7884,
      "lon": -111.977,
      "name": "Salt Lake City Intl"
    },
    "count": 7
  },
  {
    "from": {
      "icao": "KATL",
      "lat": 33.6407,
      "lon": -84.4277,
      "name": "Hartsfield-Jackson Atlanta"
    },
    "to": {
      "icao": "KSLC",
      "lat": 40.7884,
      "lon": -111.977,
      "name": "Salt Lake City Intl"
    },
    "count": 6
  },
  {
    "from": {
      "icao": "KORD",
      "lat": 41.9742,
      "lon": -87.9073,
      "name": "Chicago O'Hare"
    },
    "to": {
      "icao": "KSEA",
      "lat": 47.4502,
      "lon": -122.3088,
      "name": "Seattle Tacoma"
    },
    "count": 3
  },
  {
    "from": {
      "icao": "KDTW",
      "lat": 42.2162,
      "lon": -83.3554,
      "name": "Detroit Metro"
    },
    "to": {
      "icao": "KSLC",
      "lat": 40.7884,
      "lon": -111.977,
      "name": "Salt Lake City Intl"
    },
    "count": 7
  },
  {
    "from": {
      "icao": "KBNA",
      "lat": 36.1263,
      "lon": -86.6774,
      "name": "Nashville"
    },
    "to": {
      "icao": "KSLC",
      "lat": 40.7884,
      "lon": -111.977,
      "name": "Salt Lake City Intl"
    },
    "count": 7
  },
  {
    "from": {
      "icao": "KJFK",
      "lat": 40.6413,
      "lon": -73.7781,
      "name": "John F Kennedy"
    },
    "to": {
      "icao": "KSLC",
      "lat": 40.7884,
      "lon": -111.977,
      "name": "Salt Lake City Intl"
    },
    "count": 9
  },
  {
    "from": {
      "icao": "KSJC",
      "lat": 37.3639,
      "lon": -121.9289,
      "name": "San Jose"
    },
    "to": {
      "icao": "KSLC",
      "lat": 40.7884,
      "lon": -111.977,
      "name": "Salt Lake City Intl"
    },
    "count": 8
  },
  {
    "from": {
      "icao": "KIAD",
      "lat": 38.9531,
      "lon": -77.4565,
      "name": "Dulles"
    },
    "to": {
      "icao": "KSLC",
      "lat": 40.7884,
      "lon": -111.977,
      "name": "Salt Lake City Intl"
    },
    "count": 3
  },
  {
    "from": {
      "icao": "KSAN",
      "lat": 32.7338,
      "lon": -117.1933,
      "name": "San Diego"
    },
    "to": {
      "icao": "KSLC",
      "lat": 40.7884,
      "lon": -111.977,
      "name": "Salt Lake City Intl"
    },
    "count": 5
  },
  {
    "from": {
      "icao": "KLGA",
      "lat": 40.7769,
      "lon": -73.874,
      "name": "LaGuardia"
    },
    "to": {
      "icao": "KSLC",
      "lat": 40.7884,
      "lon": -111.977,
      "name": "Salt Lake City Intl"
    },
    "count": 6
  },
  {
    "from": {
      "icao": "KSFO",
      "lat": 37.6213,
      "lon": -122.379,
      "name": "San Francisco"
    },
    "to": {
      "icao": "KSLC",
      "lat": 40.7884,
      "lon": -111.977,
      "name": "Salt Lake City Intl"
    },
    "count": 3
  },
  {
    "from": {
      "icao": "KLAS",
      "lat": 36.084,
      "lon": -115.1537,
      "name": "Las Vegas"
    },
    "to": {
      "icao": "KSLC",
      "lat": 40.7884,
      "lon": -111.977,
      "name": "Salt Lake City Intl"
    },
    "count": 5
  },
  {
    "from": {
      "icao": "KDFW",
      "lat": 32.8998,
      "lon": -97.0403,
      "name": "Dallas/Fort Worth"
    },
    "to": {
      "icao": "KSLC",
      "lat": 40.7884,
      "lon": -111.977,
      "name": "Salt Lake City Intl"
    },
    "count": 6
  },
  {
    "from": {
      "icao": "KPHX",
      "lat": 33.4342,
      "lon": -112.0116,
      "name": "Phoenix Sky Harbor"
    },
    "to": {
      "icao": "KSLC",
      "lat": 40.7884,
      "lon": -111.977,
      "name": "Salt Lake City Intl"
    },
    "count": 3
  },
  {
    "from": {
      "icao": "KDEN",
      "lat": 39.8561,
      "lon": -104.6737,
      "name": "Denver"
    },
    "to": {
      "icao": "KJFK",
      "lat": 40.6413,
      "lon": -73.7781,
      "name": "John F Kennedy"
    },
    "count": 2
  },
  {
    "from": {
      "icao": "KIAD",
      "lat": 38.9531,
      "lon": -77.4565,
      "name": "Dulles"
    },
    "to": {
      "icao": "KJFK",
      "lat": 40.6413,
      "lon": -73.7781,
      "name": "John F Kennedy"
    },
    "count": 1
  },
  {
    "from": {
      "icao": "KCOS",
      "lat": 38.8058,
      "lon": -104.7005,
      "name": "Colorado Springs"
    },
    "to": {
      "icao": "KSLC",
      "lat": 40.7884,
      "lon": -111.977,
      "name": "Salt Lake City Intl"
    },
    "count": 4
  },
  {
    "from": {
      "icao": "KSTL",
      "lat": 38.7477,
      "lon": -90.3597,
      "name": "St. Louis"
    },
    "to": {
      "icao": "KTPA",
      "lat": 27.9755,
      "lon": -82.5332,
      "name": "Tampa"
    },
    "count": 1
  },
  {
    "from": {
      "icao": "KATL",
      "lat": 33.6407,
      "lon": -84.4277,
      "name": "Hartsfield-Jackson Atlanta"
    },
    "to": {
      "icao": "KDEN",
      "lat": 39.8561,
      "lon": -104.6737,
      "name": "Denver"
    },
    "count": 3
  },
  {
    "from": {
      "icao": "KBOS",
      "lat": 42.3656,
      "lon": -71.0096,
      "name": "Boston Logan"
    },
    "to": {
      "icao": "KSLC",
      "lat": 40.7884,
      "lon": -111.977,
      "name": "Salt Lake City Intl"
    },
    "count": 7
  },
  {
    "from": {
      "icao": "KDEN",
      "lat": 39.8561,
      "lon": -104.6737,
      "name": "Denver"
    },
    "to": {
      "icao": "KSEA",
      "lat": 47.4502,
      "lon": -122.3088,
      "name": "Seattle Tacoma"
    },
    "count": 2
  },
  {
    "from": {
      "icao": "KDFW",
      "lat": 32.8998,
      "lon": -97.0403,
      "name": "Dallas/Fort Worth"
    },
    "to": {
      "icao": "KSEA",
      "lat": 47.4502,
      "lon": -122.3088,
      "name": "Seattle Tacoma"
    },
    "count": 3
  },
  {
    "from": {
      "icao": "KDEN",
      "lat": 39.8561,
      "lon": -104.6737,
      "name": "Denver"
    },
    "to": {
      "icao": "KMSP",
      "lat": 44.882,
      "lon": -93.2218,
      "name": "Minneapolis/St Paul"
    },
    "count": 2
  },
  {
    "from": {
      "icao": "KMSP",
      "lat": 44.882,
      "lon": -93.2218,
      "name": "Minneapolis/St Paul"
    },
    "to": {
      "icao": "KSLC",
      "lat": 40.7884,
      "lon": -111.977,
      "name": "Salt Lake City Intl"
    },
    "count": 5
  },
  {
    "from": {
      "icao": "KSLC",
      "lat": 40.7884,
      "lon": -111.977,
      "name": "Salt Lake City Intl"
    },
    "to": {
      "icao": "KSTL",
      "lat": 38.7477,
      "lon": -90.3597,
      "name": "St. Louis"
    },
    "count": 6
  },
  {
    "from": {
      "icao": "KDCA",
      "lat": 38.8512,
      "lon": -77.0402,
      "name": "Reagan National"
    },
    "to": {
      "icao": "KLAX",
      "lat": 33.9416,
      "lon": -118.4085,
      "name": "Los Angeles"
    },
    "count": 2
  },
  {
    "from": {
      "icao": "KDEN",
      "lat": 39.8561,
      "lon": -104.6737,
      "name": "Denver"
    },
    "to": {
      "icao": "KDTW",
      "lat": 42.2162,
      "lon": -83.3554,
      "name": "Detroit Metro"
    },
    "count": 3
  },
  {
    "from": {
      "icao": "KFLL",
      "lat": 26.0726,
      "lon": -80.1527,
      "name": "Fort Lauderdale"
    },
    "to": {
      "icao": "KSLC",
      "lat": 40.7884,
      "lon": -111.977,
      "name": "Salt Lake City Intl"
    },
    "count": 5
  },
  {
    "from": {
      "icao": "KANC",
      "lat": 61.1743,
      "lon": -149.9985,
      "name": "Anchorage"
    },
    "to": {
      "icao": "KSMF",
      "lat": 38.6954,
      "lon": -121.5908,
      "name": "Sacramento"
    },
    "count": 2
  },
  {
    "from": {
      "icao": "KBNA",
      "lat": 36.1263,
      "lon": -86.6774,
      "name": "Nashville"
    },
    "to": {
      "icao": "KTPA",
      "lat": 27.9755,
      "lon": -82.5332,
      "name": "Tampa"
    },
    "count": 1
  },
  {
    "from": {
      "icao": "KDEN",
      "lat": 39.8561,
      "lon": -104.6737,
      "name": "Denver"
    },
    "to": {
      "icao": "KMCO",
      "lat": 28.4312,
      "lon": -81.3081,
      "name": "Orlando"
    },
    "count": 1
  },
  {
    "from": {
      "icao": "KDCA",
      "lat": 38.8512,
      "lon": -77.0402,
      "name": "Reagan National"
    },
    "to": {
      "icao": "KDFW",
      "lat": 32.8998,
      "lon": -97.0403,
      "name": "Dallas/Fort Worth"
    },
    "count": 1
  },
  {
    "from": {
      "icao": "KORD",
      "lat": 41.9742,
      "lon": -87.9073,
      "name": "Chicago O'Hare"
    },
    "to": {
      "icao": "KSLC",
      "lat": 40.7884,
      "lon": -111.977,
      "name": "Salt Lake City Intl"
    },
    "count": 5
  },
  {
    "from": {
      "icao": "KJFK",
      "lat": 40.6413,
      "lon": -73.7781,
      "name": "John F Kennedy"
    },
    "to": {
      "icao": "KSEA",
      "lat": 47.4502,
      "lon": -122.3088,
      "name": "Seattle Tacoma"
    },
    "count": 4
  },
  {
    "from": {
      "icao": "KPDX",
      "lat": 45.5898,
      "lon": -122.5951,
      "name": "Portland"
    },
    "to": {
      "icao": "KSAN",
      "lat": 32.7338,
      "lon": -117.1933,
      "name": "San Diego"
    },
    "count": 1
  },
  {
    "from": {
      "icao": "KCOS",
      "lat": 38.8058,
      "lon": -104.7005,
      "name": "Colorado Springs"
    },
    "to": {
      "icao": "KDTW",
      "lat": 42.2162,
      "lon": -83.3554,
      "name": "Detroit Metro"
    },
    "count": 1
  },
  {
    "from": {
      "icao": "KBOS",
      "lat": 42.3656,
      "lon": -71.0096,
      "name": "Boston Logan"
    },
    "to": {
      "icao": "KFLL",
      "lat": 26.0726,
      "lon": -80.1527,
      "name": "Fort Lauderdale"
    },
    "count": 1
  },
  {
    "from": {
      "icao": "KDFW",
      "lat": 32.8998,
      "lon": -97.0403,
      "name": "Dallas/Fort Worth"
    },
    "to": {
      "icao": "KORD",
      "lat": 41.9742,
      "lon": -87.9073,
      "name": "Chicago O'Hare"
    },
    "count": 4
  },
  {
    "from": {
      "icao": "KATL",
      "lat": 33.6407,
      "lon": -84.4277,
      "name": "Hartsfield-Jackson Atlanta"
    },
    "to": {
      "icao": "KSMF",
      "lat": 38.6954,
      "lon": -121.5908,
      "name": "Sacramento"
    },
    "count": 1
  },
  {
    "from": {
      "icao": "KDEN",
      "lat": 39.8561,
      "lon": -104.6737,
      "name": "Denver"
    },
    "to": {
      "icao": "KSLC",
      "lat": 40.7884,
      "lon": -111.977,
      "name": "Salt Lake City Intl"
    },
    "count": 1
  },
  {
    "from": {
      "icao": "KSEA",
      "lat": 47.4502,
      "lon": -122.3088,
      "name": "Seattle Tacoma"
    },
    "to": {
      "icao": "KSLC",
      "lat": 40.7884,
      "lon": -111.977,
      "name": "Salt Lake City Intl"
    },
    "count": 3
  },
  {
    "from": {
      "icao": "KSMF",
      "lat": 38.6954,
      "lon": -121.5908,
      "name": "Sacramento"
    },
    "to": {
      "icao": "KSTL",
      "lat": 38.7477,
      "lon": -90.3597,
      "name": "St. Louis"
    },
    "count": 1
  },
  {
    "from": {
      "icao": "KDCA",
      "lat": 38.8512,
      "lon": -77.0402,
      "name": "Reagan National"
    },
    "to": {
      "icao": "KSLC",
      "lat": 40.7884,
      "lon": -111.977,
      "name": "Salt Lake City Intl"
    },
    "count": 3
  },
  {
    "from": {
      "icao": "KIAD",
      "lat": 38.9531,
      "lon": -77.4565,
      "name": "Dulles"
    },
    "to": {
      "icao": "KLGA",
      "lat": 40.7769,
      "lon": -73.874,
      "name": "LaGuardia"
    },
    "count": 1
  },
  {
    "from": {
      "icao": "KBOI",
      "lat": 43.5644,
      "lon": -116.2228,
      "name": "Boise"
    },
    "to": {
      "icao": "KPDX",
      "lat": 45.5898,
      "lon": -122.5951,
      "name": "Portland"
    },
    "count": 1
  },
  {
    "from": {
      "icao": "KBOI",
      "lat": 43.5644,
      "lon": -116.2228,
      "name": "Boise"
    },
    "to": {
      "icao": "KSLC",
      "lat": 40.7884,
      "lon": -111.977,
      "name": "Salt Lake City Intl"
    },
    "count": 5
  },
  {
    "from": {
      "icao": "KSLC",
      "lat": 40.7884,
      "lon": -111.977,
      "name": "Salt Lake City Intl"
    },
    "to": {
      "icao": "KSMF",
      "lat": 38.6954,
      "lon": -121.5908,
      "name": "Sacramento"
    },
    "count": 7
  },
  {
    "from": {
      "icao": "KCOS",
      "lat": 38.8058,
      "lon": -104.7005,
      "name": "Colorado Springs"
    },
    "to": {
      "icao": "KLGA",
      "lat": 40.7769,
      "lon": -73.874,
      "name": "LaGuardia"
    },
    "count": 1
  },
  {
    "from": {
      "icao": "KIAH",
      "lat": 29.9902,
      "lon": -95.3368,
      "name": "Houston Intercontinental"
    },
    "to": {
      "icao": "KSLC",
      "lat": 40.7884,
      "lon": -111.977,
      "name": "Salt Lake City Intl"
    },
    "count": 2
  },
  {
    "from": {
      "icao": "KDTW",
      "lat": 42.2162,
      "lon": -83.3554,
      "name": "Detroit Metro"
    },
    "to": {
      "icao": "KJFK",
      "lat": 40.6413,
      "lon": -73.7781,
      "name": "John F Kennedy"
    },
    "count": 1
  },
  {
    "from": {
      "icao": "KPDX",
      "lat": 45.5898,
      "lon": -122.5951,
      "name": "Portland"
    },
    "to": {
      "icao": "KSLC",
      "lat": 40.7884,
      "lon": -111.977,
      "name": "Salt Lake City Intl"
    },
    "count": 3
  },
  {
    "from": {
      "icao": "KATL",
      "lat": 33.6407,
      "lon": -84.4277,
      "name": "Hartsfield-Jackson Atlanta"
    },
    "to": {
      "icao": "KSEA",
      "lat": 47.4502,
      "lon": -122.3088,
      "name": "Seattle Tacoma"
    },
    "count": 4
  },
  {
    "from": {
      "icao": "KSLC",
      "lat": 40.7884,
      "lon": -111.977,
      "name": "Salt Lake City Intl"
    },
    "to": {
      "icao": "KTPA",
      "lat": 27.9755,
      "lon": -82.5332,
      "name": "Tampa"
    },
    "count": 5
  },
  {
    "from": {
      "icao": "KDTW",
      "lat": 42.2162,
      "lon": -83.3554,
      "name": "Detroit Metro"
    },
    "to": {
      "icao": "KSEA",
      "lat": 47.4502,
      "lon": -122.3088,
      "name": "Seattle Tacoma"
    },
    "count": 1
  },
  {
    "from": {
      "icao": "KBOI",
      "lat": 43.5644,
      "lon": -116.2228,
      "name": "Boise"
    },
    "to": {
      "icao": "KSTL",
      "lat": 38.7477,
      "lon": -90.3597,
      "name": "St. Louis"
    },
    "count": 1
  },
  {
    "from": {
      "icao": "KLGA",
      "lat": 40.7769,
      "lon": -73.874,
      "name": "LaGuardia"
    },
    "to": {
      "icao": "KSMF",
      "lat": 38.6954,
      "lon": -121.5908,
      "name": "Sacramento"
    },
    "count": 1
  },
  {
    "from": {
      "icao": "KMSP",
      "lat": 44.882,
      "lon": -93.2218,
      "name": "Minneapolis/St Paul"
    },
    "to": {
      "icao": "KORD",
      "lat": 41.9742,
      "lon": -87.9073,
      "name": "Chicago O'Hare"
    },
    "count": 1
  },
  {
    "from": {
      "icao": "KCOS",
      "lat": 38.8058,
      "lon": -104.7005,
      "name": "Colorado Springs"
    },
    "to": {
      "icao": "KMSP",
      "lat": 44.882,
      "lon": -93.2218,
      "name": "Minneapolis/St Paul"
    },
    "count": 1
  },
  {
    "from": {
      "icao": "KSFO",
      "lat": 37.6213,
      "lon": -122.379,
      "name": "San Francisco"
    },
    "to": {
      "icao": "KSJC",
      "lat": 37.3639,
      "lon": -121.9289,
      "name": "San Jose"
    },
    "count": 1
  },
  {
    "from": {
      "icao": "KFLL",
      "lat": 26.0726,
      "lon": -80.1527,
      "name": "Fort Lauderdale"
    },
    "to": {
      "icao": "KTPA",
      "lat": 27.9755,
      "lon": -82.5332,
      "name": "Tampa"
    },
    "count": 1
  },
  {
    "from": {
      "icao": "KIAD",
      "lat": 38.9531,
      "lon": -77.4565,
      "name": "Dulles"
    },
    "to": {
      "icao": "KTPA",
      "lat": 27.9755,
      "lon": -82.5332,
      "name": "Tampa"
    },
    "count": 1
  },
  {
    "from": {
      "icao": "KANC",
      "lat": 61.1743,
      "lon": -149.9985,
      "name": "Anchorage"
    },
    "to": {
      "icao": "KLAS",
      "lat": 36.084,
      "lon": -115.1537,
      "name": "Las Vegas"
    },
    "count": 1
  },
  {
    "from": {
      "icao": "KCOS",
      "lat": 38.8058,
      "lon": -104.7005,
      "name": "Colorado Springs"
    },
    "to": {
      "icao": "KSTL",
      "lat": 38.7477,
      "lon": -90.3597,
      "name": "St. Louis"
    },
    "count": 1
  },
  {
    "from": {
      "icao": "KBNA",
      "lat": 36.1263,
      "lon": -86.6774,
      "name": "Nashville"
    },
    "to": {
      "icao": "KPHX",
      "lat": 33.4342,
      "lon": -112.0116,
      "name": "Phoenix Sky Harbor"
    },
    "count": 1
  },
  {
    "from": {
      "icao": "KBNA",
      "lat": 36.1263,
      "lon": -86.6774,
      "name": "Nashville"
    },
    "to": {
      "icao": "KEWR",
      "lat": 40.6895,
      "lon": -74.1745,
      "name": "Newark Liberty"
    },
    "count": 1
  },
  {
    "from": {
      "icao": "KEWR",
      "lat": 40.6895,
      "lon": -74.1745,
      "name": "Newark Liberty"
    },
    "to": {
      "icao": "KPDX",
      "lat": 45.5898,
      "lon": -122.5951,
      "name": "Portland"
    },
    "count": 2
  },
  {
    "from": {
      "icao": "KDEN",
      "lat": 39.8561,
      "lon": -104.6737,
      "name": "Denver"
    },
    "to": {
      "icao": "KSAN",
      "lat": 32.7338,
      "lon": -117.1933,
      "name": "San Diego"
    },
    "count": 1
  },
  {
    "from": {
      "icao": "KBOI",
      "lat": 43.5644,
      "lon": -116.2228,
      "name": "Boise"
    },
    "to": {
      "icao": "KDTW",
      "lat": 42.2162,
      "lon": -83.3554,
      "name": "Detroit Metro"
    },
    "count": 1
  },
  {
    "from": {
      "icao": "KANC",
      "lat": 61.1743,
      "lon": -149.9985,
      "name": "Anchorage"
    },
    "to": {
      "icao": "KSLC",
      "lat": 40.7884,
      "lon": -111.977,
      "name": "Salt Lake City Intl"
    },
    "count": 5
  },
  {
    "from": {
      "icao": "KBOS",
      "lat": 42.3656,
      "lon": -71.0096,
      "name": "Boston Logan"
    },
    "to": {
      "icao": "KMCO",
      "lat": 28.4312,
      "lon": -81.3081,
      "name": "Orlando"
    },
    "count": 1
  },
  {
    "from": {
      "icao": "KATL",
      "lat": 33.6407,
      "lon": -84.4277,
      "name": "Hartsfield-Jackson Atlanta"
    },
    "to": {
      "icao": "KMSP",
      "lat": 44.882,
      "lon": -93.2218,
      "name": "Minneapolis/St Paul"
    },
    "count": 2
  },
  {
    "from": {
      "icao": "KDFW",
      "lat": 32.8998,
      "lon": -97.0403,
      "name": "Dallas/Fort Worth"
    },
    "to": {
      "icao": "KJFK",
      "lat": 40.6413,
      "lon": -73.7781,
      "name": "John F Kennedy"
    },
    "count": 2
  },
  {
    "from": {
      "icao": "KBOI",
      "lat": 43.5644,
      "lon": -116.2228,
      "name": "Boise"
    },
    "to": {
      "icao": "KSMF",
      "lat": 38.6954,
      "lon": -121.5908,
      "name": "Sacramento"
    },
    "count": 1
  },
  {
    "from": {
      "icao": "KEWR",
      "lat": 40.6895,
      "lon": -74.1745,
      "name": "Newark Liberty"
    },
    "to": {
      "icao": "KSEA",
      "lat": 47.4502,
      "lon": -122.3088,
      "name": "Seattle Tacoma"
    },
    "count": 1
  },
  {
    "from": {
      "icao": "KEWR",
      "lat": 40.6895,
      "lon": -74.1745,
      "name": "Newark Liberty"
    },
    "to": {
      "icao": "KIAD",
      "lat": 38.9531,
      "lon": -77.4565,
      "name": "Dulles"
    },
    "count": 1
  },
  {
    "from": {
      "icao": "KPDX",
      "lat": 45.5898,
      "lon": -122.5951,
      "name": "Portland"
    },
    "to": {
      "icao": "KSTL",
      "lat": 38.7477,
      "lon": -90.3597,
      "name": "St. Louis"
    },
    "count": 1
  },
  {
    "from": {
      "icao": "KJFK",
      "lat": 40.6413,
      "lon": -73.7781,
      "name": "John F Kennedy"
    },
    "to": {
      "icao": "KMSP",
      "lat": 44.882,
      "lon": -93.2218,
      "name": "Minneapolis/St Paul"
    },
    "count": 2
  },
  {
    "from": {
      "icao": "KATL",
      "lat": 33.6407,
      "lon": -84.4277,
      "name": "Hartsfield-Jackson Atlanta"
    },
    "to": {
      "icao": "KLGA",
      "lat": 40.7769,
      "lon": -73.874,
      "name": "LaGuardia"
    },
    "count": 1
  },
  {
    "from": {
      "icao": "KATL",
      "lat": 33.6407,
      "lon": -84.4277,
      "name": "Hartsfield-Jackson Atlanta"
    },
    "to": {
      "icao": "KDFW",
      "lat": 32.8998,
      "lon": -97.0403,
      "name": "Dallas/Fort Worth"
    },
    "count": 1
  },
  {
    "from": {
      "icao": "KLAX",
      "lat": 33.9416,
      "lon": -118.4085,
      "name": "Los Angeles"
    },
    "to": {
      "icao": "KMSP",
      "lat": 44.882,
      "lon": -93.2218,
      "name": "Minneapolis/St Paul"
    },
    "count": 1
  },
  {
    "from": {
      "icao": "KDCA",
      "lat": 38.8512,
      "lon": -77.0402,
      "name": "Reagan National"
    },
    "to": {
      "icao": "KFLL",
      "lat": 26.0726,
      "lon": -80.1527,
      "name": "Fort Lauderdale"
    },
    "count": 1
  },
  {
    "from": {
      "icao": "KMCO",
      "lat": 28.4312,
      "lon": -81.3081,
      "name": "Orlando"
    },
    "to": {
      "icao": "KMSP",
      "lat": 44.882,
      "lon": -93.2218,
      "name": "Minneapolis/St Paul"
    },
    "count": 1
  },
  {
    "from": {
      "icao": "KBNA",
      "lat": 36.1263,
      "lon": -86.6774,
      "name": "Nashville"
    },
    "to": {
      "icao": "KMCO",
      "lat": 28.4312,
      "lon": -81.3081,
      "name": "Orlando"
    },
    "count": 1
  },
  {
    "from": {
      "icao": "KLGA",
      "lat": 40.7769,
      "lon": -73.874,
      "name": "LaGuardia"
    },
    "to": {
      "icao": "KPHX",
      "lat": 33.4342,
      "lon": -112.0116,
      "name": "Phoenix Sky Harbor"
    },
    "count": 1
  },
  {
    "from": {
      "icao": "KLAS",
      "lat": 36.084,
      "lon": -115.1537,
      "name": "Las Vegas"
    },
    "to": {
      "icao": "KPHX",
      "lat": 33.4342,
      "lon": -112.0116,
      "name": "Phoenix Sky Harbor"
    },
    "count": 1
  },
  {
    "from": {
      "icao": "KEWR",
      "lat": 40.6895,
      "lon": -74.1745,
      "name": "Newark Liberty"
    },
    "to": {
      "icao": "KSLC",
      "lat": 40.7884,
      "lon": -111.977,
      "name": "Salt Lake City Intl"
    },
    "count": 1
  },
  {
    "from": {
      "icao": "KEWR",
      "lat": 40.6895,
      "lon": -74.1745,
      "name": "Newark Liberty"
    },
    "to": {
      "icao": "KORD",
      "lat": 41.9742,
      "lon": -87.9073,
      "name": "Chicago O'Hare"
    },
    "count": 1
  }
]